"$GPRMC,113706.999,A,4700.5191,N,00735.4098,E,0.00,,050914,,,A*79"
"$GPRMC,113708.000,A,4700.5191,N,00735.4098,E,0.00,,050914,,,A*7E"
"$GPRMC,113709.000,A,4700.5192,N,00735.4098,E,0.00,,050914,,,A*7C"
"$GPRMC,113710.000,A,4700.5191,N,00735.4098,E,0.00,,050914,,,A*77"
"$GPRMC,113711.000,A,4700.5191,N,00735.4098,E,0.00,,050914,,,A*76"
"$GPRMC,113712.000,A,4700.5191,N,00735.4098,E,0.00,,050914,,,A*75"
"$GPRMC,113713.000,A,4700.5191,N,00735.4098,E,0.00,,050914,,,A*74"
"$GPRMC,113714.000,A,4700.5191,N,00735.4098,E,0.00,,050914,,,A*73"
"$GPRMC,113715.000,A,4700.5191,N,00735.4098,E,0.00,,050914,,,A*72"
"$GPRMC,113716.000,A,4700.5190,N,00735.4098,E,0.00,,050914,,,A*70"
"$GPRMC,113717.000,A,4700.5190,N,00735.4098,E,0.00,,050914,,,A*71"
"$GPRMC,113718.000,A,4700.5190,N,00735.4097,E,0.00,,050914,,,A*71"
"$GPRMC,113719.000,A,4700.5190,N,00735.4097,E,0.00,,050914,,,A*70"
"$GPRMC,113720.000,A,4700.5189,N,00735.4097,E,0.00,,050914,,,A*72"
"$GPRMC,113721.000,A,4700.5189,N,00735.4097,E,0.00,,050914,,,A*73"
"$GPRMC,113722.000,A,4700.5189,N,00735.4097,E,0.00,,050914,,,A*70"
"$GPRMC,113723.000,A,4700.5189,N,00735.4097,E,0.00,,050914,,,A*71"
"$GPRMC,113724.000,A,4700.5188,N,00735.4097,E,0.00,,050914,,,A*77"
"$GPRMC,113725.000,A,4700.5188,N,00735.4097,E,0.00,,050914,,,A*76"
"$GPRMC,113726.000,A,4700.5188,N,00735.4097,E,0.00,,050914,,,A*75"
"$GPRMC,113727.000,A,4700.5187,N,00735.4097,E,0.00,,050914,,,A*7B"
"$GPRMC,113728.000,A,4700.5187,N,00735.4097,E,0.00,,050914,,,A*74"
"$GPRMC,113729.000,A,4700.5189,N,00735.4096,E,0.00,,050914,,,A*7A"
"$GPRMC,113730.000,A,4700.5191,N,00735.4096,E,0.00,,050914,,,A*7B"
"$GPRMC,113731.000,A,4700.5191,N,00735.4096,E,0.00,,050914,,,A*7A"
"$GPRMC,113732.000,A,4700.5192,N,00735.4096,E,0.00,,050914,,,A*7A"
"$GPRMC,113733.000,A,4700.5192,N,00735.4096,E,0.00,,050914,,,A*7B"
"$GPRMC,113734.000,A,4700.5193,N,00735.4096,E,0.00,,050914,,,A*7D"
"$GPRMC,113735.000,A,4700.5193,N,00735.4096,E,0.00,,050914,,,A*7C"
"$GPRMC,113736.000,A,4700.5193,N,00735.4095,E,0.00,,050914,,,A*7C"
"$GPRMC,113737.000,A,4700.5193,N,00735.4095,E,0.00,,050914,,,A*7D"
"$GPRMC,113738.000,A,4700.5193,N,00735.4095,E,0.00,,050914,,,A*72"
"$GPRMC,113739.000,A,4700.5194,N,00735.4095,E,0.00,,050914,,,A*74"
"$GPRMC,113740.000,A,4700.5194,N,00735.4094,E,0.00,,050914,,,A*7B"
"$GPRMC,113741.000,A,4700.5194,N,00735.4094,E,0.00,,050914,,,A*7A"
"$GPRMC,113742.000,A,4700.5194,N,00735.4094,E,0.00,,050914,,,A*79"
"$GPRMC,113743.000,A,4700.5194,N,00735.4094,E,0.00,,050914,,,A*78"
"$GPRMC,113744.000,A,4700.5194,N,00735.4094,E,0.00,,050914,,,A*7F"
"$GPRMC,113745.000,A,4700.5194,N,00735.4093,E,0.00,,050914,,,A*79"
"$GPRMC,113746.000,A,4700.5194,N,00735.4093,E,0.00,,050914,,,A*7A"
"$GPRMC,113747.000,A,4700.5194,N,00735.4093,E,0.00,,050914,,,A*7B"
"$GPRMC,113748.000,A,4700.5194,N,00735.4093,E,0.00,,050914,,,A*74"
"$GPRMC,113749.000,A,4700.5194,N,00735.4093,E,0.00,,050914,,,A*75"
"$GPRMC,113750.000,A,4700.5194,N,00735.4092,E,0.00,,050914,,,A*7C"
"$GPRMC,113751.000,A,4700.5194,N,00735.4092,E,0.00,,050914,,,A*7D"
"$GPRMC,113752.000,A,4700.5194,N,00735.4092,E,0.00,,050914,,,A*7E"
"$GPRMC,113753.000,A,4700.5194,N,00735.4092,E,0.00,,050914,,,A*7F"
"$GPRMC,113754.000,A,4700.5194,N,00735.4092,E,0.00,,050914,,,A*78"
"$GPRMC,113755.000,A,4700.5194,N,00735.4092,E,0.00,,050914,,,A*79"
"$GPRMC,113756.000,A,4700.5194,N,00735.4092,E,0.00,,050914,,,A*7A"
"$GPRMC,113757.000,A,4700.5194,N,00735.4091,E,0.00,,050914,,,A*78"
"$GPRMC,113758.000,A,4700.5194,N,00735.4091,E,0.00,,050914,,,A*77"
"$GPRMC,113759.000,A,4700.5194,N,00735.4091,E,0.00,,050914,,,A*76"
"$GPRMC,113800.000,A,4700.5194,N,00735.4091,E,0.00,,050914,,,A*75"
"$GPRMC,113801.000,A,4700.5194,N,00735.4091,E,0.00,,050914,,,A*74"
"$GPRMC,113802.000,A,4700.5194,N,00735.4091,E,0.00,,050914,,,A*77"
"$GPRMC,113803.000,A,4700.5194,N,00735.4091,E,0.00,,050914,,,A*76"
"$GPRMC,113804.000,A,4700.5194,N,00735.4091,E,0.00,,050914,,,A*71"
"$GPRMC,113805.000,A,4700.5194,N,00735.4091,E,0.00,,050914,,,A*70"
"$GPRMC,113806.000,A,4700.5194,N,00735.4091,E,0.00,,050914,,,A*73"
"$GPRMC,113807.000,A,4700.5194,N,00735.4090,E,0.00,,050914,,,A*73"
"$GPRMC,113808.000,A,4700.5195,N,00735.4090,E,0.00,,050914,,,A*7D"
"$GPRMC,113809.000,A,4700.5195,N,00735.4089,E,0.00,,050914,,,A*74"
"$GPRMC,113810.000,A,4700.5195,N,00735.4089,E,0.00,,050914,,,A*7C"
"$GPRMC,113811.000,A,4700.5195,N,00735.4089,E,0.00,,050914,,,A*7D"
"$GPRMC,113812.000,A,4700.5195,N,00735.4089,E,0.00,,050914,,,A*7E"
"$GPRMC,113813.000,A,4700.5195,N,00735.4089,E,0.00,,050914,,,A*7F"
"$GPRMC,113814.000,A,4700.5196,N,00735.4089,E,0.00,,050914,,,A*7B"
"$GPRMC,113815.000,A,4700.5196,N,00735.4089,E,0.00,,050914,,,A*7A"
"$GPRMC,113816.000,A,4700.5196,N,00735.4089,E,0.00,,050914,,,A*79"
"$GPRMC,113817.000,A,4700.5196,N,00735.4089,E,0.00,,050914,,,A*78"
"$GPRMC,113818.000,A,4700.5197,N,00735.4089,E,0.00,,050914,,,A*76"
"$GPRMC,113819.000,A,4700.5197,N,00735.4089,E,0.00,,050914,,,A*77"
"$GPRMC,113820.000,A,4700.5197,N,00735.4089,E,0.00,,050914,,,A*7D"
"$GPRMC,113821.000,A,4700.5197,N,00735.4089,E,0.00,,050914,,,A*7C"
"$GPRMC,113822.000,A,4700.5197,N,00735.4089,E,0.00,,050914,,,A*7F"
"$GPRMC,113823.000,A,4700.5197,N,00735.4089,E,0.00,,050914,,,A*7E"
"$GPRMC,113824.000,A,4700.5198,N,00735.4089,E,0.00,,050914,,,A*76"
"$GPRMC,113825.000,A,4700.5198,N,00735.4089,E,0.00,,050914,,,A*77"
"$GPRMC,113826.000,A,4700.5198,N,00735.4089,E,0.00,,050914,,,A*74"
"$GPRMC,113827.000,A,4700.5198,N,00735.4089,E,0.00,,050914,,,A*75"
"$GPRMC,113828.000,A,4700.5198,N,00735.4089,E,0.00,,050914,,,A*7A"
"$GPRMC,113829.000,A,4700.5198,N,00735.4089,E,0.00,,050914,,,A*7B"
"$GPRMC,113830.000,A,4700.5198,N,00735.4089,E,0.00,,050914,,,A*73"
"$GPRMC,113831.000,A,4700.5198,N,00735.4089,E,0.00,,050914,,,A*72"
"$GPRMC,113832.000,A,4700.5198,N,00735.4089,E,0.00,,050914,,,A*71"
"$GPRMC,113833.000,A,4700.5198,N,00735.4089,E,0.00,,050914,,,A*70"
"$GPRMC,113834.000,A,4700.5198,N,00735.4089,E,0.00,,050914,,,A*77"
"$GPRMC,113835.000,A,4700.5198,N,00735.4089,E,0.00,,050914,,,A*76"
"$GPRMC,113836.000,A,4700.5198,N,00735.4089,E,0.00,,050914,,,A*75"
"$GPRMC,113837.000,A,4700.5198,N,00735.4089,E,0.00,,050914,,,A*74"
"$GPRMC,113838.000,A,4700.5198,N,00735.4089,E,0.00,,050914,,,A*7B"
"$GPRMC,113839.000,A,4700.5198,N,00735.4089,E,0.00,,050914,,,A*7A"
"$GPRMC,113840.000,A,4700.5198,N,00735.4089,E,0.00,,050914,,,A*74"
"$GPRMC,113841.000,A,4700.5198,N,00735.4089,E,0.00,,050914,,,A*75"
"$GPRMC,113842.000,A,4700.5198,N,00735.4089,E,0.00,,050914,,,A*76"
"$GPRMC,113843.000,A,4700.5199,N,00735.4089,E,0.00,,050914,,,A*76"
"$GPRMC,113844.000,A,4700.5199,N,00735.4089,E,0.00,,050914,,,A*71"
"$GPRMC,113845.000,A,4700.5199,N,00735.4089,E,0.00,,050914,,,A*70"
"$GPRMC,113846.000,A,4700.5199,N,00735.4089,E,0.00,,050914,,,A*73"
"$GPRMC,113847.000,A,4700.5199,N,00735.4089,E,0.00,,050914,,,A*72"
"$GPRMC,113848.000,A,4700.5199,N,00735.4088,E,0.00,,050914,,,A*7C"
"$GPRMC,113849.000,A,4700.5199,N,00735.4088,E,0.00,,050914,,,A*7D"
"$GPRMC,113850.000,A,4700.5198,N,00735.4088,E,0.00,,050914,,,A*74"
"$GPRMC,113851.000,A,4700.5198,N,00735.4088,E,0.00,,050914,,,A*75"
"$GPRMC,113852.000,A,4700.5198,N,00735.4087,E,0.00,,050914,,,A*79"
"$GPRMC,113853.000,A,4700.5198,N,00735.4087,E,0.00,,050914,,,A*78"
"$GPRMC,113854.000,A,4700.5198,N,00735.4087,E,0.00,,050914,,,A*7F"
"$GPRMC,113855.000,A,4700.5198,N,00735.4087,E,0.00,,050914,,,A*7E"
"$GPRMC,113856.000,A,4700.5198,N,00735.4087,E,0.00,,050914,,,A*7D"
"$GPRMC,113857.000,A,4700.5198,N,00735.4086,E,0.00,,050914,,,A*7D"
"$GPRMC,113858.000,A,4700.5198,N,00735.4086,E,0.00,,050914,,,A*72"
"$GPRMC,113859.000,A,4700.5198,N,00735.4086,E,0.00,,050914,,,A*73"
"$GPRMC,113900.000,A,4700.5197,N,00735.4086,E,0.00,,050914,,,A*71"
"$GPRMC,113901.000,A,4700.5197,N,00735.4086,E,0.00,,050914,,,A*70"
"$GPRMC,113902.000,A,4700.5197,N,00735.4085,E,0.00,,050914,,,A*70"
"$GPRMC,113903.000,A,4700.5197,N,00735.4085,E,0.00,,050914,,,A*71"
"$GPRMC,113904.000,A,4700.5197,N,00735.4085,E,0.00,,050914,,,A*76"
"$GPRMC,113905.000,A,4700.5197,N,00735.4085,E,0.00,,050914,,,A*77"
"$GPRMC,113906.000,A,4700.5197,N,00735.4084,E,0.00,,050914,,,A*75"
"$GPRMC,113907.000,A,4700.5197,N,00735.4084,E,0.00,,050914,,,A*74"
"$GPRMC,113908.000,A,4700.5196,N,00735.4084,E,0.00,,050914,,,A*7A"
"$GPRMC,113909.000,A,4700.5196,N,00735.4084,E,0.00,,050914,,,A*7B"
"$GPRMC,113910.000,A,4700.5196,N,00735.4083,E,0.00,,050914,,,A*74"
"$GPRMC,113911.000,A,4700.5196,N,00735.4083,E,0.00,,050914,,,A*75"
"$GPRMC,113912.000,A,4700.5196,N,00735.4083,E,0.00,,050914,,,A*76"
"$GPRMC,113913.000,A,4700.5196,N,00735.4083,E,0.00,,050914,,,A*77"
"$GPRMC,113914.000,A,4700.5196,N,00735.4083,E,0.00,,050914,,,A*70"
"$GPRMC,113915.000,A,4700.5195,N,00735.4082,E,0.00,,050914,,,A*73"
"$GPRMC,113916.000,A,4700.5195,N,00735.4082,E,0.00,,050914,,,A*70"
"$GPRMC,113917.000,A,4700.5195,N,00735.4082,E,0.00,,050914,,,A*71"
"$GPRMC,113918.000,A,4700.5195,N,00735.4082,E,0.00,,050914,,,A*7E"
"$GPRMC,113919.000,A,4700.5195,N,00735.4081,E,0.00,,050914,,,A*7C"
"$GPRMC,113920.000,A,4700.5195,N,00735.4081,E,0.00,,050914,,,A*76"
"$GPRMC,113921.000,A,4700.5195,N,00735.4081,E,0.00,,050914,,,A*77"
"$GPRMC,113922.000,A,4700.5195,N,00735.4081,E,0.00,,050914,,,A*74"
"$GPRMC,113923.000,A,4700.5194,N,00735.4081,E,0.00,,050914,,,A*74"
"$GPRMC,113924.000,A,4700.5194,N,00735.4080,E,0.00,,050914,,,A*72"
"$GPRMC,113925.000,A,4700.5194,N,00735.4080,E,0.00,,050914,,,A*73"
"$GPRMC,113926.000,A,4700.5194,N,00735.4080,E,0.00,,050914,,,A*70"
"$GPRMC,113927.000,A,4700.5194,N,00735.4080,E,0.00,,050914,,,A*71"
"$GPRMC,113928.000,A,4700.5194,N,00735.4079,E,0.00,,050914,,,A*78"
"$GPRMC,113929.000,A,4700.5194,N,00735.4079,E,0.00,,050914,,,A*79"
"$GPRMC,113930.000,A,4700.5194,N,00735.4079,E,0.00,,050914,,,A*71"
"$GPRMC,113931.000,A,4700.5193,N,00735.4079,E,0.00,,050914,,,A*77"
"$GPRMC,113932.000,A,4700.5193,N,00735.4079,E,0.00,,050914,,,A*74"
"$GPRMC,113933.000,A,4700.5193,N,00735.4078,E,0.00,,050914,,,A*74"
"$GPRMC,113934.000,A,4700.5193,N,00735.4078,E,0.00,,050914,,,A*73"
"$GPRMC,113935.000,A,4700.5193,N,00735.4078,E,0.00,,050914,,,A*72"
"$GPRMC,113936.000,A,4700.5193,N,00735.4078,E,0.00,,050914,,,A*71"
"$GPRMC,113937.000,A,4700.5193,N,00735.4078,E,0.00,,050914,,,A*70"
"$GPRMC,113938.000,A,4700.5192,N,00735.4078,E,0.00,,050914,,,A*7E"
"$GPRMC,113939.000,A,4700.5192,N,00735.4077,E,0.00,,050914,,,A*70"
"$GPRMC,113940.000,A,4700.5192,N,00735.4077,E,0.00,,050914,,,A*7E"
"$GPRMC,113941.000,A,4700.5192,N,00735.4077,E,0.00,,050914,,,A*7F"
"$GPRMC,113942.000,A,4700.5192,N,00735.4077,E,0.00,,050914,,,A*7C"
"$GPRMC,113943.000,A,4700.5192,N,00735.4077,E,0.00,,050914,,,A*7D"
"$GPRMC,113944.000,A,4700.5192,N,00735.4076,E,0.00,,050914,,,A*7B"
"$GPRMC,113945.000,A,4700.5192,N,00735.4076,E,0.00,,050914,,,A*7A"
"$GPRMC,113946.000,A,4700.5191,N,00735.4076,E,0.00,,050914,,,A*7A"
"$GPRMC,113947.000,A,4700.5191,N,00735.4076,E,0.00,,050914,,,A*7B"
"$GPRMC,113948.000,A,4700.5191,N,00735.4076,E,0.00,,050914,,,A*74"
"$GPRMC,113949.000,A,4700.5191,N,00735.4076,E,0.00,,050914,,,A*75"
"$GPRMC,113950.000,A,4700.5191,N,00735.4075,E,0.00,,050914,,,A*7E"
"$GPRMC,113951.000,A,4700.5191,N,00735.4075,E,0.00,,050914,,,A*7F"
"$GPRMC,113952.000,A,4700.5191,N,00735.4075,E,0.00,,050914,,,A*7C"
"$GPRMC,113953.000,A,4700.5191,N,00735.4075,E,0.00,,050914,,,A*7D"
"$GPRMC,113954.000,A,4700.5191,N,00735.4075,E,0.00,,050914,,,A*7A"
"$GPRMC,113955.000,A,4700.5190,N,00735.4075,E,0.00,,050914,,,A*7A"
"$GPRMC,113956.000,A,4700.5190,N,00735.4075,E,0.00,,050914,,,A*79"
"$GPRMC,113957.000,A,4700.5190,N,00735.4074,E,0.00,,050914,,,A*79"
"$GPRMC,113958.000,A,4700.5190,N,00735.4074,E,0.00,,050914,,,A*76"
"$GPRMC,113959.000,A,4700.5190,N,00735.4074,E,0.00,,050914,,,A*77"
"$GPRMC,114000.000,A,4700.5190,N,00735.4074,E,0.00,,050914,,,A*75"
"$GPRMC,114001.000,A,4700.5190,N,00735.4074,E,0.00,,050914,,,A*74"
"$GPRMC,114002.000,A,4700.5190,N,00735.4074,E,0.00,,050914,,,A*77"
"$GPRMC,114003.000,A,4700.5190,N,00735.4074,E,0.00,,050914,,,A*76"
"$GPRMC,114004.000,A,4700.5189,N,00735.4073,E,0.00,,050914,,,A*7E"
"$GPRMC,114005.000,A,4700.5189,N,00735.4073,E,0.00,,050914,,,A*7F"
"$GPRMC,114006.000,A,4700.5189,N,00735.4073,E,0.00,,050914,,,A*7C"
"$GPRMC,114007.000,A,4700.5189,N,00735.4073,E,0.00,,050914,,,A*7D"
"$GPRMC,114008.000,A,4700.5189,N,00735.4073,E,0.00,,050914,,,A*72"
"$GPRMC,114009.000,A,4700.5189,N,00735.4073,E,0.00,,050914,,,A*73"
"$GPRMC,114010.000,A,4700.5189,N,00735.4073,E,0.00,,050914,,,A*7B"
"$GPRMC,114011.000,A,4700.5189,N,00735.4073,E,0.00,,050914,,,A*7A"
"$GPRMC,114012.000,A,4700.5188,N,00735.4073,E,0.00,,050914,,,A*78"
"$GPRMC,114013.000,A,4700.5188,N,00735.4073,E,0.00,,050914,,,A*79"
"$GPRMC,114014.000,A,4700.5188,N,00735.4072,E,0.00,,050914,,,A*7F"
"$GPRMC,114015.000,A,4700.5188,N,00735.4072,E,0.00,,050914,,,A*7E"
"$GPRMC,114016.000,A,4700.5188,N,00735.4072,E,0.00,,050914,,,A*7D"
"$GPRMC,114017.000,A,4700.5188,N,00735.4072,E,0.00,,050914,,,A*7C"
"$GPRMC,114018.000,A,4700.5188,N,00735.4072,E,0.00,,050914,,,A*73"
"$GPRMC,114019.000,A,4700.5188,N,00735.4072,E,0.00,,050914,,,A*72"
"$GPRMC,114020.000,A,4700.5188,N,00735.4072,E,0.00,,050914,,,A*78"
"$GPRMC,114021.000,A,4700.5187,N,00735.4072,E,0.00,,050914,,,A*76"
"$GPRMC,114022.000,A,4700.5187,N,00735.4072,E,0.00,,050914,,,A*75"
"$GPRMC,114023.000,A,4700.5187,N,00735.4072,E,0.00,,050914,,,A*74"
"$GPRMC,114024.000,A,4700.5187,N,00735.4071,E,0.00,,050914,,,A*70"
"$GPRMC,114025.000,A,4700.5187,N,00735.4071,E,0.00,,050914,,,A*71"
"$GPRMC,114026.000,A,4700.5187,N,00735.4071,E,0.00,,050914,,,A*72"
"$GPRMC,114027.000,A,4700.5187,N,00735.4071,E,0.00,,050914,,,A*73"
"$GPRMC,114028.000,A,4700.5187,N,00735.4071,E,0.00,,050914,,,A*7C"
"$GPRMC,114029.000,A,4700.5186,N,00735.4071,E,0.00,,050914,,,A*7C"
"$GPRMC,114030.000,A,4700.5186,N,00735.4071,E,0.00,,050914,,,A*74"
"$GPRMC,114031.000,A,4700.5186,N,00735.4071,E,0.00,,050914,,,A*75"
"$GPRMC,114032.000,A,4700.5186,N,00735.4071,E,0.00,,050914,,,A*76"
"$GPRMC,114033.000,A,4700.5186,N,00735.4071,E,0.00,,050914,,,A*77"
"$GPRMC,114034.000,A,4700.5186,N,00735.4071,E,0.00,,050914,,,A*70"
"$GPRMC,114035.000,A,4700.5186,N,00735.4071,E,0.00,,050914,,,A*71"
"$GPRMC,114036.000,A,4700.5185,N,00735.4070,E,0.00,,050914,,,A*70"
"$GPRMC,114037.000,A,4700.5185,N,00735.4070,E,0.00,,050914,,,A*71"
"$GPRMC,114038.000,A,4700.5185,N,00735.4070,E,0.00,,050914,,,A*7E"
"$GPRMC,114039.000,A,4700.5185,N,00735.4070,E,0.00,,050914,,,A*7F"
"$GPRMC,114040.000,A,4700.5185,N,00735.4070,E,0.00,,050914,,,A*71"
"$GPRMC,114041.000,A,4700.5185,N,00735.4070,E,0.00,,050914,,,A*70"
"$GPRMC,114042.000,A,4700.5184,N,00735.4070,E,0.00,,050914,,,A*72"
"$GPRMC,114043.000,A,4700.5184,N,00735.4070,E,0.00,,050914,,,A*73"
"$GPRMC,114044.000,A,4700.5184,N,00735.4070,E,0.00,,050914,,,A*74"
"$GPRMC,114045.000,A,4700.5184,N,00735.4070,E,0.00,,050914,,,A*75"
"$GPRMC,114046.000,A,4700.5184,N,00735.4070,E,0.00,,050914,,,A*76"
"$GPRMC,114047.000,A,4700.5184,N,00735.4070,E,0.00,,050914,,,A*77"
"$GPRMC,114048.000,A,4700.5184,N,00735.4069,E,0.00,,050914,,,A*70"
"$GPRMC,114049.000,A,4700.5183,N,00735.4069,E,0.00,,050914,,,A*76"
"$GPRMC,114050.000,A,4700.5183,N,00735.4069,E,0.00,,050914,,,A*7E"
"$GPRMC,114051.000,A,4700.5183,N,00735.4069,E,0.00,,050914,,,A*7F"
"$GPRMC,114052.000,A,4700.5183,N,00735.4069,E,0.00,,050914,,,A*7C"
"$GPRMC,114053.000,A,4700.5183,N,00735.4069,E,0.00,,050914,,,A*7D"
"$GPRMC,114054.000,A,4700.5183,N,00735.4069,E,0.00,,050914,,,A*7A"
"$GPRMC,114055.000,A,4700.5183,N,00735.4069,E,0.00,,050914,,,A*7B"
"$GPRMC,114056.000,A,4700.5182,N,00735.4069,E,0.00,,050914,,,A*79"
"$GPRMC,114057.000,A,4700.5182,N,00735.4069,E,0.00,,050914,,,A*78"
"$GPRMC,114058.000,A,4700.5182,N,00735.4069,E,0.00,,050914,,,A*77"
"$GPRMC,114059.000,A,4700.5182,N,00735.4069,E,0.00,,050914,,,A*76"
"$GPRMC,114100.000,A,4700.5182,N,00735.4069,E,0.00,,050914,,,A*7B"
"$GPRMC,114101.000,A,4700.5182,N,00735.4069,E,0.00,,050914,,,A*7A"
"$GPRMC,114102.000,A,4700.5182,N,00735.4069,E,0.00,,050914,,,A*79"
"$GPRMC,114103.000,A,4700.5181,N,00735.4068,E,0.00,,050914,,,A*7A"
"$GPRMC,114104.000,A,4700.5181,N,00735.4068,E,0.00,,050914,,,A*7D"
"$GPRMC,114105.000,A,4700.5181,N,00735.4068,E,0.00,,050914,,,A*7C"
"$GPRMC,114106.000,A,4700.5181,N,00735.4068,E,0.00,,050914,,,A*7F"
"$GPRMC,114107.000,A,4700.5181,N,00735.4068,E,0.00,,050914,,,A*7E"
"$GPRMC,114108.000,A,4700.5181,N,00735.4068,E,0.00,,050914,,,A*71"
"$GPRMC,114109.000,A,4700.5181,N,00735.4068,E,0.00,,050914,,,A*70"
"$GPRMC,114110.000,A,4700.5181,N,00735.4068,E,0.00,,050914,,,A*78"
"$GPRMC,114111.000,A,4700.5180,N,00735.4068,E,0.00,,050914,,,A*78"
"$GPRMC,114112.000,A,4700.5180,N,00735.4068,E,0.00,,050914,,,A*7B"
"$GPRMC,114113.000,A,4700.5180,N,00735.4068,E,0.00,,050914,,,A*7A"
"$GPRMC,114114.000,A,4700.5180,N,00735.4068,E,0.00,,050914,,,A*7D"
"$GPRMC,114115.000,A,4700.5180,N,00735.4067,E,0.00,,050914,,,A*73"
"$GPRMC,114116.000,A,4700.5180,N,00735.4067,E,0.00,,050914,,,A*70"
"$GPRMC,114117.000,A,4700.5180,N,00735.4067,E,0.00,,050914,,,A*71"
"$GPRMC,114118.000,A,4700.5179,N,00735.4067,E,0.00,,050914,,,A*78"
"$GPRMC,114119.000,A,4700.5179,N,00735.4067,E,0.00,,050914,,,A*79"
"$GPRMC,114120.000,A,4700.5179,N,00735.4067,E,0.00,,050914,,,A*73"
"$GPRMC,114121.000,A,4700.5179,N,00735.4067,E,0.00,,050914,,,A*72"
"$GPRMC,114122.000,A,4700.5179,N,00735.4067,E,0.00,,050914,,,A*71"
"$GPRMC,114123.000,A,4700.5179,N,00735.4067,E,0.00,,050914,,,A*70"
"$GPRMC,114124.000,A,4700.5179,N,00735.4067,E,0.00,,050914,,,A*77"
"$GPRMC,114125.000,A,4700.5178,N,00735.4067,E,0.00,,050914,,,A*77"
"$GPRMC,114126.000,A,4700.5178,N,00735.4066,E,0.00,,050914,,,A*75"
"$GPRMC,114127.000,A,4700.5178,N,00735.4066,E,0.00,,050914,,,A*74"
"$GPRMC,114128.000,A,4700.5178,N,00735.4066,E,0.00,,050914,,,A*7B"
"$GPRMC,114129.000,A,4700.5178,N,00735.4066,E,0.00,,050914,,,A*7A"
"$GPRMC,114130.000,A,4700.5178,N,00735.4066,E,0.00,,050914,,,A*72"
"$GPRMC,114131.000,A,4700.5178,N,00735.4066,E,0.00,,050914,,,A*73"
"$GPRMC,114132.000,A,4700.5178,N,00735.4066,E,0.00,,050914,,,A*70"
"$GPRMC,114133.000,A,4700.5177,N,00735.4066,E,0.00,,050914,,,A*7E"
"$GPRMC,114134.000,A,4700.5177,N,00735.4066,E,0.00,,050914,,,A*79"
"$GPRMC,114135.000,A,4700.5177,N,00735.4066,E,0.00,,050914,,,A*78"
"$GPRMC,114136.000,A,4700.5177,N,00735.4066,E,0.00,,050914,,,A*7B"
"$GPRMC,114137.000,A,4700.5177,N,00735.4066,E,0.00,,050914,,,A*7A"
"$GPRMC,114138.000,A,4700.5177,N,00735.4065,E,0.00,,050914,,,A*76"
"$GPRMC,114139.000,A,4700.5177,N,00735.4065,E,0.00,,050914,,,A*77"
"$GPRMC,114140.000,A,4700.5176,N,00735.4065,E,0.00,,050914,,,A*78"
"$GPRMC,114141.000,A,4700.5176,N,00735.4065,E,0.00,,050914,,,A*79"
"$GPRMC,114142.000,A,4700.5176,N,00735.4065,E,0.00,,050914,,,A*7A"
"$GPRMC,114143.000,A,4700.5176,N,00735.4065,E,0.00,,050914,,,A*7B"
"$GPRMC,114144.000,A,4700.5176,N,00735.4065,E,0.00,,050914,,,A*7C"
"$GPRMC,114145.000,A,4700.5176,N,00735.4065,E,0.00,,050914,,,A*7D"
"$GPRMC,114146.000,A,4700.5176,N,00735.4065,E,0.00,,050914,,,A*7E"
"$GPRMC,114147.000,A,4700.5176,N,00735.4065,E,0.00,,050914,,,A*7F"
"$GPRMC,114148.000,A,4700.5176,N,00735.4065,E,0.00,,050914,,,A*70"
"$GPRMC,114149.000,A,4700.5176,N,00735.4065,E,0.00,,050914,,,A*71"
"$GPRMC,114150.000,A,4700.5176,N,00735.4065,E,0.00,,050914,,,A*79"
"$GPRMC,114151.000,A,4700.5176,N,00735.4065,E,0.00,,050914,,,A*78"
"$GPRMC,114152.000,A,4700.5176,N,00735.4065,E,0.00,,050914,,,A*7B"
"$GPRMC,114153.000,A,4700.5176,N,00735.4065,E,0.00,,050914,,,A*7A"
"$GPRMC,114154.000,A,4700.5176,N,00735.4065,E,0.00,,050914,,,A*7D"
"$GPRMC,114155.000,A,4700.5176,N,00735.4065,E,0.00,,050914,,,A*7C"
"$GPRMC,114156.000,A,4700.5176,N,00735.4065,E,0.00,,050914,,,A*7F"
"$GPRMC,114157.000,A,4700.5176,N,00735.4065,E,0.00,,050914,,,A*7E"
"$GPRMC,114158.000,A,4700.5176,N,00735.4064,E,0.00,,050914,,,A*70"
"$GPRMC,114159.000,A,4700.5176,N,00735.4064,E,0.00,,050914,,,A*71"
"$GPRMC,114200.000,A,4700.5176,N,00735.4064,E,0.00,,050914,,,A*7E"
"$GPRMC,114201.000,A,4700.5177,N,00735.4064,E,0.00,,050914,,,A*7E"
"$GPRMC,114202.000,A,4700.5177,N,00735.4064,E,0.00,,050914,,,A*7D"
"$GPRMC,114203.000,A,4700.5176,N,00735.4064,E,0.00,,050914,,,A*7D"
"$GPRMC,114204.000,A,4700.5176,N,00735.4064,E,0.00,,050914,,,A*7A"
"$GPRMC,114205.000,A,4700.5176,N,00735.4064,E,0.00,,050914,,,A*7B"
"$GPRMC,114206.000,A,4700.5177,N,00735.4063,E,0.00,,050914,,,A*7E"
"$GPRMC,114207.000,A,4700.5177,N,00735.4063,E,0.00,,050914,,,A*7F"
"$GPRMC,114208.000,A,4700.5177,N,00735.4063,E,0.00,,050914,,,A*70"
"$GPRMC,114209.000,A,4700.5177,N,00735.4063,E,0.00,,050914,,,A*71"
"$GPRMC,114210.000,A,4700.5177,N,00735.4063,E,0.00,,050914,,,A*79"
"$GPRMC,114211.000,A,4700.5177,N,00735.4063,E,0.00,,050914,,,A*78"
"$GPRMC,114212.000,A,4700.5177,N,00735.4063,E,0.00,,050914,,,A*7B"
"$GPRMC,114213.000,A,4700.5177,N,00735.4062,E,0.00,,050914,,,A*7B"
"$GPRMC,114214.000,A,4700.5177,N,00735.4062,E,0.00,,050914,,,A*7C"
"$GPRMC,114215.000,A,4700.5178,N,00735.4062,E,0.00,,050914,,,A*72"
"$GPRMC,114216.000,A,4700.5178,N,00735.4062,E,0.00,,050914,,,A*71"
"$GPRMC,114217.000,A,4700.5178,N,00735.4062,E,0.00,,050914,,,A*70"
"$GPRMC,114218.000,A,4700.5178,N,00735.4062,E,0.00,,050914,,,A*7F"
"$GPRMC,114219.000,A,4700.5178,N,00735.4062,E,0.00,,050914,,,A*7E"
"$GPRMC,114220.000,A,4700.5178,N,00735.4061,E,0.00,,050914,,,A*77"
"$GPRMC,114221.000,A,4700.5178,N,00735.4061,E,0.00,,050914,,,A*76"
"$GPRMC,114222.000,A,4700.5178,N,00735.4061,E,0.00,,050914,,,A*75"
"$GPRMC,114223.000,A,4700.5178,N,00735.4061,E,0.00,,050914,,,A*74"
"$GPRMC,114224.000,A,4700.5178,N,00735.4061,E,0.00,,050914,,,A*73"
"$GPRMC,114225.000,A,4700.5178,N,00735.4061,E,0.00,,050914,,,A*72"
"$GPRMC,114226.000,A,4700.5178,N,00735.4061,E,0.00,,050914,,,A*71"
"$GPRMC,114227.000,A,4700.5178,N,00735.4061,E,0.00,,050914,,,A*70"
"$GPRMC,114228.000,A,4700.5178,N,00735.4060,E,0.00,,050914,,,A*7E"
"$GPRMC,114229.000,A,4700.5179,N,00735.4060,E,0.00,,050914,,,A*7E"
"$GPRMC,114230.000,A,4700.5179,N,00735.4060,E,0.00,,050914,,,A*76"
"$GPRMC,114231.000,A,4700.5179,N,00735.4060,E,0.00,,050914,,,A*77"
"$GPRMC,114232.000,A,4700.5179,N,00735.4060,E,0.00,,050914,,,A*74"
"$GPRMC,114233.000,A,4700.5179,N,00735.4060,E,0.00,,050914,,,A*75"
"$GPRMC,114234.000,A,4700.5179,N,00735.4060,E,0.00,,050914,,,A*72"
"$GPRMC,114235.000,A,4700.5179,N,00735.4059,E,0.00,,050914,,,A*79"
"$GPRMC,114236.000,A,4700.5179,N,00735.4059,E,0.00,,050914,,,A*7A"
"$GPRMC,114237.000,A,4700.5179,N,00735.4059,E,0.00,,050914,,,A*7B"
"$GPRMC,114238.000,A,4700.5179,N,00735.4059,E,0.00,,050914,,,A*74"
"$GPRMC,114239.000,A,4700.5179,N,00735.4059,E,0.00,,050914,,,A*75"
"$GPRMC,114240.000,A,4700.5179,N,00735.4059,E,0.00,,050914,,,A*7B"
"$GPRMC,114241.000,A,4700.5179,N,00735.4059,E,0.00,,050914,,,A*7A"
"$GPRMC,114242.000,A,4700.5180,N,00735.4059,E,0.00,,050914,,,A*7F"
"$GPRMC,114243.000,A,4700.5180,N,00735.4058,E,0.00,,050914,,,A*7F"
"$GPRMC,114244.000,A,4700.5180,N,00735.4058,E,0.00,,050914,,,A*78"
"$GPRMC,114245.000,A,4700.5180,N,00735.4058,E,0.00,,050914,,,A*79"
"$GPRMC,114246.000,A,4700.5180,N,00735.4058,E,0.00,,050914,,,A*7A"
"$GPRMC,114247.000,A,4700.5180,N,00735.4058,E,0.00,,050914,,,A*7B"
"$GPRMC,114248.000,A,4700.5180,N,00735.4058,E,0.00,,050914,,,A*74"
"$GPRMC,114249.000,A,4700.5180,N,00735.4058,E,0.00,,050914,,,A*75"
"$GPRMC,114250.000,A,4700.5180,N,00735.4057,E,0.00,,050914,,,A*72"
"$GPRMC,114251.000,A,4700.5180,N,00735.4057,E,0.00,,050914,,,A*73"
"$GPRMC,114252.000,A,4700.5180,N,00735.4057,E,0.00,,050914,,,A*70"
"$GPRMC,114253.000,A,4700.5180,N,00735.4057,E,0.00,,050914,,,A*71"
"$GPRMC,114254.000,A,4700.5180,N,00735.4057,E,0.00,,050914,,,A*76"
"$GPRMC,114255.000,A,4700.5181,N,00735.4057,E,0.00,,050914,,,A*76"
"$GPRMC,114256.000,A,4700.5181,N,00735.4057,E,0.00,,050914,,,A*75"
"$GPRMC,114257.000,A,4700.5181,N,00735.4057,E,0.00,,050914,,,A*74"
"$GPRMC,114258.000,A,4700.5181,N,00735.4056,E,0.00,,050914,,,A*7A"
"$GPRMC,114259.000,A,4700.5181,N,00735.4056,E,0.00,,050914,,,A*7B"
"$GPRMC,114300.000,A,4700.5181,N,00735.4056,E,0.00,,050914,,,A*76"
"$GPRMC,114301.000,A,4700.5181,N,00735.4056,E,0.00,,050914,,,A*77"
"$GPRMC,114302.000,A,4700.5181,N,00735.4056,E,0.00,,050914,,,A*74"
"$GPRMC,114303.000,A,4700.5181,N,00735.4056,E,0.00,,050914,,,A*75"
"$GPRMC,114304.000,A,4700.5181,N,00735.4055,E,0.00,,050914,,,A*71"
"$GPRMC,114305.000,A,4700.5181,N,00735.4055,E,0.00,,050914,,,A*70"
"$GPRMC,114306.000,A,4700.5181,N,00735.4055,E,0.00,,050914,,,A*73"
"$GPRMC,114307.000,A,4700.5181,N,00735.4055,E,0.00,,050914,,,A*72"
"$GPRMC,114308.000,A,4700.5181,N,00735.4055,E,0.00,,050914,,,A*7D"
"$GPRMC,114309.000,A,4700.5181,N,00735.4054,E,0.00,,050914,,,A*7D"
"$GPRMC,114310.000,A,4700.5180,N,00735.4054,E,0.00,,050914,,,A*74"
"$GPRMC,114311.000,A,4700.5180,N,00735.4054,E,0.00,,050914,,,A*75"
"$GPRMC,114312.000,A,4700.5180,N,00735.4054,E,0.00,,050914,,,A*76"
"$GPRMC,114313.000,A,4700.5180,N,00735.4054,E,0.00,,050914,,,A*77"
"$GPRMC,114314.000,A,4700.5180,N,00735.4053,E,0.00,,050914,,,A*77"
"$GPRMC,114315.000,A,4700.5180,N,00735.4053,E,0.00,,050914,,,A*76"
"$GPRMC,114316.000,A,4700.5180,N,00735.4053,E,0.00,,050914,,,A*75"
"$GPRMC,114317.000,A,4700.5180,N,00735.4053,E,0.00,,050914,,,A*74"
"$GPRMC,114318.000,A,4700.5180,N,00735.4053,E,0.00,,050914,,,A*7B"
"$GPRMC,114319.000,A,4700.5180,N,00735.4052,E,0.00,,050914,,,A*7B"
"$GPRMC,114320.000,A,4700.5180,N,00735.4052,E,0.00,,050914,,,A*71"
"$GPRMC,114321.000,A,4700.5180,N,00735.4052,E,0.00,,050914,,,A*70"
"$GPRMC,114322.000,A,4700.5180,N,00735.4052,E,0.00,,050914,,,A*73"
"$GPRMC,114323.000,A,4700.5180,N,00735.4051,E,0.00,,050914,,,A*71"
"$GPRMC,114324.000,A,4700.5180,N,00735.4051,E,0.00,,050914,,,A*76"
"$GPRMC,114325.000,A,4700.5180,N,00735.4051,E,0.00,,050914,,,A*77"
"$GPRMC,114326.000,A,4700.5180,N,00735.4051,E,0.00,,050914,,,A*74"
"$GPRMC,114327.000,A,4700.5180,N,00735.4051,E,0.00,,050914,,,A*75"
"$GPRMC,114328.000,A,4700.5180,N,00735.4050,E,0.00,,050914,,,A*7B"
"$GPRMC,114329.000,A,4700.5180,N,00735.4050,E,0.00,,050914,,,A*7A"
"$GPRMC,114330.000,A,4700.5180,N,00735.4050,E,0.00,,050914,,,A*72"
"$GPRMC,114331.000,A,4700.5180,N,00735.4050,E,0.00,,050914,,,A*73"
"$GPRMC,114332.000,A,4700.5180,N,00735.4050,E,0.00,,050914,,,A*70"
"$GPRMC,114333.000,A,4700.5180,N,00735.4049,E,0.00,,050914,,,A*79"
"$GPRMC,114334.000,A,4700.5180,N,00735.4049,E,0.00,,050914,,,A*7E"
"$GPRMC,114335.000,A,4700.5180,N,00735.4049,E,0.00,,050914,,,A*7F"
"$GPRMC,114336.000,A,4700.5180,N,00735.4049,E,0.00,,050914,,,A*7C"
"$GPRMC,114337.000,A,4700.5180,N,00735.4049,E,0.00,,050914,,,A*7D"
"$GPRMC,114338.000,A,4700.5180,N,00735.4048,E,0.00,,050914,,,A*73"
"$GPRMC,114339.000,A,4700.5180,N,00735.4048,E,0.00,,050914,,,A*72"
"$GPRMC,114340.000,A,4700.5180,N,00735.4048,E,0.00,,050914,,,A*7C"
"$GPRMC,114341.000,A,4700.5180,N,00735.4048,E,0.00,,050914,,,A*7D"
"$GPRMC,114342.000,A,4700.5180,N,00735.4048,E,0.00,,050914,,,A*7E"
"$GPRMC,114343.000,A,4700.5180,N,00735.4047,E,0.00,,050914,,,A*70"
"$GPRMC,114344.000,A,4700.5179,N,00735.4047,E,0.00,,050914,,,A*71"
"$GPRMC,114345.000,A,4700.5179,N,00735.4047,E,0.00,,050914,,,A*70"
"$GPRMC,114346.000,A,4700.5179,N,00735.4047,E,0.00,,050914,,,A*73"
"$GPRMC,114347.000,A,4700.5179,N,00735.4047,E,0.00,,050914,,,A*72"
"$GPRMC,114348.000,A,4700.5179,N,00735.4047,E,0.00,,050914,,,A*7D"
"$GPRMC,114349.000,A,4700.5180,N,00735.4046,E,0.00,,050914,,,A*7B"
"$GPRMC,114350.000,A,4700.5180,N,00735.4046,E,0.00,,050914,,,A*73"
"$GPRMC,114351.000,A,4700.5180,N,00735.4046,E,0.00,,050914,,,A*72"
"$GPRMC,114352.000,A,4700.5180,N,00735.4046,E,0.00,,050914,,,A*71"
"$GPRMC,114353.000,A,4700.5180,N,00735.4046,E,0.00,,050914,,,A*70"
"$GPRMC,114354.000,A,4700.5180,N,00735.4046,E,0.00,,050914,,,A*77"
"$GPRMC,114355.000,A,4700.5180,N,00735.4046,E,0.00,,050914,,,A*76"
"$GPRMC,114356.000,A,4700.5180,N,00735.4046,E,0.00,,050914,,,A*75"
"$GPRMC,114357.000,A,4700.5180,N,00735.4046,E,0.00,,050914,,,A*74"
"$GPRMC,114358.000,A,4700.5180,N,00735.4046,E,0.00,,050914,,,A*7B"
"$GPRMC,114359.000,A,4700.5180,N,00735.4046,E,0.00,,050914,,,A*7A"
"$GPRMC,114400.000,A,4700.5180,N,00735.4046,E,0.00,,050914,,,A*71"
"$GPRMC,114401.000,A,4700.5180,N,00735.4046,E,0.00,,050914,,,A*70"
"$GPRMC,114402.000,A,4700.5180,N,00735.4046,E,0.00,,050914,,,A*73"
"$GPRMC,114403.000,A,4700.5180,N,00735.4046,E,0.00,,050914,,,A*72"
"$GPRMC,114404.000,A,4700.5180,N,00735.4046,E,0.00,,050914,,,A*75"
"$GPRMC,114405.000,A,4700.5180,N,00735.4046,E,0.00,,050914,,,A*74"
"$GPRMC,114406.000,A,4700.5180,N,00735.4045,E,0.00,,050914,,,A*74"
"$GPRMC,114407.000,A,4700.5180,N,00735.4045,E,0.00,,050914,,,A*75"
"$GPRMC,114408.000,A,4700.5180,N,00735.4045,E,0.00,,050914,,,A*7A"
"$GPRMC,114409.000,A,4700.5180,N,00735.4045,E,0.00,,050914,,,A*7B"
"$GPRMC,114410.000,A,4700.5180,N,00735.4045,E,0.00,,050914,,,A*73"
"$GPRMC,114411.000,A,4700.5180,N,00735.4045,E,0.00,,050914,,,A*72"
"$GPRMC,114412.000,A,4700.5180,N,00735.4045,E,0.00,,050914,,,A*71"
"$GPRMC,114413.000,A,4700.5180,N,00735.4045,E,0.00,,050914,,,A*70"
"$GPRMC,114414.000,A,4700.5180,N,00735.4045,E,0.00,,050914,,,A*77"
"$GPRMC,114415.000,A,4700.5180,N,00735.4045,E,0.00,,050914,,,A*76"
"$GPRMC,114416.000,A,4700.5180,N,00735.4045,E,0.00,,050914,,,A*75"
"$GPRMC,114417.000,A,4700.5180,N,00735.4045,E,0.00,,050914,,,A*74"
"$GPRMC,114418.000,A,4700.5179,N,00735.4045,E,0.00,,050914,,,A*7D"
"$GPRMC,114419.000,A,4700.5179,N,00735.4044,E,0.00,,050914,,,A*7D"
"$GPRMC,114420.000,A,4700.5179,N,00735.4044,E,0.00,,050914,,,A*77"
"$GPRMC,114421.000,A,4700.5179,N,00735.4044,E,0.00,,050914,,,A*76"
"$GPRMC,114422.000,A,4700.5179,N,00735.4044,E,0.00,,050914,,,A*75"
"$GPRMC,114423.000,A,4700.5179,N,00735.4044,E,0.00,,050914,,,A*74"
"$GPRMC,114424.000,A,4700.5179,N,00735.4044,E,0.00,,050914,,,A*73"
"$GPRMC,114425.000,A,4700.5179,N,00735.4044,E,0.00,,050914,,,A*72"
"$GPRMC,114426.000,A,4700.5179,N,00735.4044,E,0.00,,050914,,,A*71"
"$GPRMC,114427.000,A,4700.5178,N,00735.4044,E,0.00,,050914,,,A*71"
"$GPRMC,114428.000,A,4700.5178,N,00735.4044,E,0.00,,050914,,,A*7E"
"$GPRMC,114429.000,A,4700.5179,N,00735.4044,E,0.00,,050914,,,A*7E"
"$GPRMC,114430.000,A,4700.5179,N,00735.4044,E,0.00,,050914,,,A*76"
"$GPRMC,114431.000,A,4700.5179,N,00735.4044,E,0.00,,050914,,,A*77"
"$GPRMC,114432.000,A,4700.5179,N,00735.4044,E,0.00,,050914,,,A*74"
"$GPRMC,114433.000,A,4700.5179,N,00735.4044,E,0.00,,050914,,,A*75"
"$GPRMC,114434.000,A,4700.5180,N,00735.4045,E,0.00,,050914,,,A*75"
"$GPRMC,114435.000,A,4700.5180,N,00735.4045,E,0.00,,050914,,,A*74"
"$GPRMC,114436.000,A,4700.5181,N,00735.4045,E,0.00,,050914,,,A*76"
"$GPRMC,114437.000,A,4700.5181,N,00735.4046,E,0.00,,050914,,,A*74"
"$GPRMC,114438.000,A,4700.5182,N,00735.4046,E,0.00,,050914,,,A*78"
"$GPRMC,114439.000,A,4700.5182,N,00735.4046,E,0.00,,050914,,,A*79"
"$GPRMC,114440.000,A,4700.5183,N,00735.4047,E,0.00,,050914,,,A*77"
"$GPRMC,114441.000,A,4700.5183,N,00735.4047,E,0.00,,050914,,,A*76"
"$GPRMC,114442.000,A,4700.5184,N,00735.4048,E,0.00,,050914,,,A*7D"
"$GPRMC,114443.000,A,4700.5185,N,00735.4048,E,0.00,,050914,,,A*7D"
"$GPRMC,114444.000,A,4700.5185,N,00735.4048,E,0.00,,050914,,,A*7A"
"$GPRMC,114445.000,A,4700.5186,N,00735.4049,E,0.00,,050914,,,A*79"
"$GPRMC,114446.000,A,4700.5186,N,00735.4049,E,0.00,,050914,,,A*7A"
"$GPRMC,114447.000,A,4700.5188,N,00735.4050,E,0.00,,050914,,,A*7D"
"$GPRMC,114448.000,A,4700.5190,N,00735.4051,E,0.00,,050914,,,A*7A"
"$GPRMC,114449.000,A,4700.5191,N,00735.4052,E,0.00,,050914,,,A*79"
"$GPRMC,114450.000,A,4700.5193,N,00735.4053,E,0.00,,050914,,,A*72"
"$GPRMC,114451.000,A,4700.5194,N,00735.4054,E,0.00,,050914,,,A*73"
"$GPRMC,114452.000,A,4700.5195,N,00735.4055,E,0.00,,050914,,,A*70"
"$GPRMC,114453.000,A,4700.5196,N,00735.4055,E,0.00,,050914,,,A*72"
"$GPRMC,114454.000,A,4700.5197,N,00735.4056,E,0.00,,050914,,,A*77"
"$GPRMC,114455.000,A,4700.5199,N,00735.4057,E,0.00,,050914,,,A*79"
"$GPRMC,114456.000,A,4700.5199,N,00735.4057,E,0.00,,050914,,,A*7A"
"$GPRMC,114457.000,A,4700.5200,N,00735.4058,E,0.00,,050914,,,A*77"
"$GPRMC,114458.000,A,4700.5201,N,00735.4058,E,0.00,,050914,,,A*79"
"$GPRMC,114459.000,A,4700.5202,N,00735.4059,E,0.00,,050914,,,A*7A"
"$GPRMC,114500.000,A,4700.5203,N,00735.4059,E,0.00,,050914,,,A*76"
"$GPRMC,114501.000,A,4700.5204,N,00735.4060,E,0.00,,050914,,,A*7A"
"$GPRMC,114502.000,A,4700.5204,N,00735.4060,E,0.00,,050914,,,A*79"
"$GPRMC,114503.000,A,4700.5205,N,00735.4061,E,0.00,,050914,,,A*78"
"$GPRMC,114504.000,A,4700.5206,N,00735.4061,E,0.00,,050914,,,A*7C"
"$GPRMC,114505.000,A,4700.5207,N,00735.4061,E,0.00,,050914,,,A*7C"
"$GPRMC,114506.000,A,4700.5207,N,00735.4062,E,0.00,,050914,,,A*7C"
"$GPRMC,114507.000,A,4700.5208,N,00735.4062,E,0.00,,050914,,,A*72"
"$GPRMC,114508.000,A,4700.5208,N,00735.4062,E,0.00,,050914,,,A*7D"
"$GPRMC,114509.000,A,4700.5209,N,00735.4063,E,0.00,,050914,,,A*7C"
"$GPRMC,114510.000,A,4700.5209,N,00735.4063,E,0.00,,050914,,,A*74"
"$GPRMC,114511.000,A,4700.5210,N,00735.4063,E,0.00,,050914,,,A*7D"
"$GPRMC,114512.000,A,4700.5210,N,00735.4064,E,0.00,,050914,,,A*79"
"$GPRMC,114513.000,A,4700.5211,N,00735.4064,E,0.00,,050914,,,A*79"
"$GPRMC,114514.000,A,4700.5211,N,00735.4064,E,0.00,,050914,,,A*7E"
"$GPRMC,114515.000,A,4700.5212,N,00735.4064,E,0.00,,050914,,,A*7C"
"$GPRMC,114516.000,A,4700.5212,N,00735.4064,E,0.00,,050914,,,A*7F"
"$GPRMC,114517.000,A,4700.5212,N,00735.4065,E,0.00,,050914,,,A*7F"
"$GPRMC,114518.000,A,4700.5212,N,00735.4065,E,0.00,,050914,,,A*70"
"$GPRMC,114519.000,A,4700.5213,N,00735.4065,E,0.00,,050914,,,A*70"
"$GPRMC,114520.000,A,4700.5213,N,00735.4065,E,0.00,,050914,,,A*7A"
"$GPRMC,114521.000,A,4700.5213,N,00735.4065,E,0.00,,050914,,,A*7B"
"$GPRMC,114522.000,A,4700.5214,N,00735.4065,E,0.00,,050914,,,A*7F"
"$GPRMC,114523.000,A,4700.5214,N,00735.4066,E,0.00,,050914,,,A*7D"
"$GPRMC,114524.000,A,4700.5214,N,00735.4066,E,0.00,,050914,,,A*7A"
"$GPRMC,114525.000,A,4700.5214,N,00735.4066,E,0.00,,050914,,,A*7B"
"$GPRMC,114526.000,A,4700.5214,N,00735.4066,E,0.00,,050914,,,A*78"
"$GPRMC,114527.000,A,4700.5214,N,00735.4066,E,0.00,,050914,,,A*79"
"$GPRMC,114528.000,A,4700.5214,N,00735.4066,E,0.00,,050914,,,A*76"
"$GPRMC,114529.000,A,4700.5215,N,00735.4066,E,0.00,,050914,,,A*76"
"$GPRMC,114530.000,A,4700.5215,N,00735.4066,E,0.00,,050914,,,A*7E"
"$GPRMC,114531.000,A,4700.5215,N,00735.4066,E,0.00,,050914,,,A*7F"
"$GPRMC,114532.000,A,4700.5215,N,00735.4066,E,0.00,,050914,,,A*7C"
"$GPRMC,114533.000,A,4700.5215,N,00735.4066,E,0.00,,050914,,,A*7D"
"$GPRMC,114534.000,A,4700.5215,N,00735.4066,E,0.00,,050914,,,A*7A"
"$GPRMC,114535.000,A,4700.5215,N,00735.4066,E,0.00,,050914,,,A*7B"
"$GPRMC,114536.000,A,4700.5215,N,00735.4066,E,0.00,,050914,,,A*78"
"$GPRMC,114537.000,A,4700.5215,N,00735.4066,E,0.00,,050914,,,A*79"
"$GPRMC,114538.000,A,4700.5215,N,00735.4066,E,0.00,,050914,,,A*76"
"$GPRMC,114539.000,A,4700.5215,N,00735.4066,E,0.00,,050914,,,A*77"
"$GPRMC,114540.000,A,4700.5215,N,00735.4066,E,0.00,,050914,,,A*79"
"$GPRMC,114541.000,A,4700.5215,N,00735.4066,E,0.00,,050914,,,A*78"
"$GPRMC,114542.000,A,4700.5214,N,00735.4066,E,0.00,,050914,,,A*7A"
"$GPRMC,114543.000,A,4700.5214,N,00735.4066,E,0.00,,050914,,,A*7B"
"$GPRMC,114544.000,A,4700.5214,N,00735.4065,E,0.00,,050914,,,A*7F"
"$GPRMC,114545.000,A,4700.5214,N,00735.4065,E,0.00,,050914,,,A*7E"
"$GPRMC,114546.000,A,4700.5214,N,00735.4065,E,0.00,,050914,,,A*7D"
"$GPRMC,114547.000,A,4700.5214,N,00735.4065,E,0.00,,050914,,,A*7C"
"$GPRMC,114548.000,A,4700.5213,N,00735.4065,E,0.00,,050914,,,A*74"
"$GPRMC,114549.000,A,4700.5213,N,00735.4065,E,0.00,,050914,,,A*75"
"$GPRMC,114550.000,A,4700.5213,N,00735.4065,E,0.00,,050914,,,A*7D"
"$GPRMC,114551.000,A,4700.5213,N,00735.4065,E,0.00,,050914,,,A*7C"
"$GPRMC,114552.000,A,4700.5213,N,00735.4065,E,0.00,,050914,,,A*7F"
"$GPRMC,114553.000,A,4700.5213,N,00735.4065,E,0.00,,050914,,,A*7E"
"$GPRMC,114554.000,A,4700.5212,N,00735.4064,E,0.00,,050914,,,A*79"
"$GPRMC,114555.000,A,4700.5212,N,00735.4064,E,0.00,,050914,,,A*78"
"$GPRMC,114556.000,A,4700.5212,N,00735.4064,E,0.00,,050914,,,A*7B"
"$GPRMC,114557.000,A,4700.5212,N,00735.4064,E,0.00,,050914,,,A*7A"
"$GPRMC,114558.000,A,4700.5211,N,00735.4064,E,0.00,,050914,,,A*76"
"$GPRMC,114559.000,A,4700.5211,N,00735.4064,E,0.00,,050914,,,A*77"
"$GPRMC,114600.000,A,4700.5211,N,00735.4064,E,0.00,,050914,,,A*78"
"$GPRMC,114601.000,A,4700.5211,N,00735.4064,E,0.00,,050914,,,A*79"
"$GPRMC,114602.000,A,4700.5210,N,00735.4063,E,0.00,,050914,,,A*7C"
"$GPRMC,114603.000,A,4700.5210,N,00735.4063,E,0.00,,050914,,,A*7D"
"$GPRMC,114604.000,A,4700.5210,N,00735.4063,E,0.00,,050914,,,A*7A"
"$GPRMC,114605.000,A,4700.5209,N,00735.4063,E,0.00,,050914,,,A*73"
"$GPRMC,114606.000,A,4700.5209,N,00735.4063,E,0.00,,050914,,,A*70"
"$GPRMC,114607.000,A,4700.5209,N,00735.4062,E,0.00,,050914,,,A*70"
"$GPRMC,114608.000,A,4700.5208,N,00735.4062,E,0.00,,050914,,,A*7E"
"$GPRMC,114609.000,A,4700.5208,N,00735.4062,E,0.00,,050914,,,A*7F"
"$GPRMC,114610.000,A,4700.5208,N,00735.4062,E,0.00,,050914,,,A*77"
"$GPRMC,114611.000,A,4700.5207,N,00735.4062,E,0.00,,050914,,,A*79"
"$GPRMC,114612.000,A,4700.5207,N,00735.4062,E,0.00,,050914,,,A*7A"
"$GPRMC,114613.000,A,4700.5207,N,00735.4061,E,0.00,,050914,,,A*78"
"$GPRMC,114614.000,A,4700.5206,N,00735.4061,E,0.00,,050914,,,A*7E"
"$GPRMC,114615.000,A,4700.5206,N,00735.4061,E,0.00,,050914,,,A*7F"
"$GPRMC,114616.000,A,4700.5206,N,00735.4061,E,0.00,,050914,,,A*7C"
"$GPRMC,114617.000,A,4700.5206,N,00735.4061,E,0.00,,050914,,,A*7D"
"$GPRMC,114618.000,A,4700.5205,N,00735.4061,E,0.00,,050914,,,A*71"
"$GPRMC,114619.000,A,4700.5205,N,00735.4061,E,0.00,,050914,,,A*70"
"$GPRMC,114620.000,A,4700.5205,N,00735.4061,E,0.00,,050914,,,A*7A"
"$GPRMC,114621.000,A,4700.5205,N,00735.4060,E,0.00,,050914,,,A*7A"
"$GPRMC,114622.000,A,4700.5204,N,00735.4060,E,0.00,,050914,,,A*78"
"$GPRMC,114623.000,A,4700.5204,N,00735.4060,E,0.00,,050914,,,A*79"
"$GPRMC,114624.000,A,4700.5204,N,00735.4060,E,0.00,,050914,,,A*7E"
"$GPRMC,114625.000,A,4700.5204,N,00735.4060,E,0.00,,050914,,,A*7F"
"$GPRMC,114626.000,A,4700.5203,N,00735.4060,E,0.00,,050914,,,A*7B"
"$GPRMC,114627.000,A,4700.5203,N,00735.4060,E,0.00,,050914,,,A*7A"
"$GPRMC,114628.000,A,4700.5203,N,00735.4060,E,0.00,,050914,,,A*75"
"$GPRMC,114629.000,A,4700.5203,N,00735.4060,E,0.00,,050914,,,A*74"
"$GPRMC,114630.000,A,4700.5203,N,00735.4059,E,0.00,,050914,,,A*76"
"$GPRMC,114631.000,A,4700.5202,N,00735.4059,E,0.00,,050914,,,A*76"
"$GPRMC,114632.000,A,4700.5202,N,00735.4059,E,0.00,,050914,,,A*75"
"$GPRMC,114633.000,A,4700.5202,N,00735.4059,E,0.00,,050914,,,A*74"
"$GPRMC,114634.000,A,4700.5202,N,00735.4059,E,0.00,,050914,,,A*73"
"$GPRMC,114635.000,A,4700.5202,N,00735.4059,E,0.00,,050914,,,A*72"
"$GPRMC,114636.000,A,4700.5201,N,00735.4059,E,0.00,,050914,,,A*72"
"$GPRMC,114637.000,A,4700.5201,N,00735.4059,E,0.00,,050914,,,A*73"
"$GPRMC,114638.000,A,4700.5201,N,00735.4059,E,0.00,,050914,,,A*7C"
"$GPRMC,114639.000,A,4700.5201,N,00735.4059,E,0.00,,050914,,,A*7D"
"$GPRMC,114640.000,A,4700.5201,N,00735.4059,E,0.00,,050914,,,A*73"
"$GPRMC,114641.000,A,4700.5200,N,00735.4059,E,0.00,,050914,,,A*73"
"$GPRMC,114642.000,A,4700.5200,N,00735.4059,E,0.00,,050914,,,A*70"
"$GPRMC,114643.000,A,4700.5200,N,00735.4058,E,0.00,,050914,,,A*70"
"$GPRMC,114644.000,A,4700.5200,N,00735.4058,E,0.00,,050914,,,A*77"
"$GPRMC,114645.000,A,4700.5200,N,00735.4058,E,0.00,,050914,,,A*76"
"$GPRMC,114646.000,A,4700.5200,N,00735.4058,E,0.00,,050914,,,A*75"
"$GPRMC,114647.000,A,4700.5199,N,00735.4058,E,0.00,,050914,,,A*77"
"$GPRMC,114648.000,A,4700.5199,N,00735.4058,E,0.00,,050914,,,A*78"
"$GPRMC,114649.000,A,4700.5199,N,00735.4058,E,0.00,,050914,,,A*79"
"$GPRMC,114650.000,A,4700.5199,N,00735.4058,E,0.00,,050914,,,A*71"
"$GPRMC,114651.000,A,4700.5199,N,00735.4058,E,0.00,,050914,,,A*70"
"$GPRMC,114652.000,A,4700.5199,N,00735.4058,E,0.00,,050914,,,A*73"
"$GPRMC,114653.000,A,4700.5198,N,00735.4058,E,0.00,,050914,,,A*73"
"$GPRMC,114654.000,A,4700.5198,N,00735.4058,E,0.00,,050914,,,A*74"
"$GPRMC,114655.000,A,4700.5198,N,00735.4058,E,0.00,,050914,,,A*75"
"$GPRMC,114656.000,A,4700.5198,N,00735.4058,E,0.00,,050914,,,A*76"
"$GPRMC,114657.000,A,4700.5198,N,00735.4058,E,0.00,,050914,,,A*77"
"$GPRMC,114658.000,A,4700.5197,N,00735.4058,E,0.00,,050914,,,A*77"
"$GPRMC,114659.000,A,4700.5197,N,00735.4058,E,0.00,,050914,,,A*76"
"$GPRMC,114700.000,A,4700.5197,N,00735.4058,E,0.00,,050914,,,A*7B"
"$GPRMC,114701.000,A,4700.5197,N,00735.4058,E,0.00,,050914,,,A*7A"
"$GPRMC,114702.000,A,4700.5197,N,00735.4057,E,0.00,,050914,,,A*76"
"$GPRMC,114703.000,A,4700.5197,N,00735.4057,E,0.00,,050914,,,A*77"
"$GPRMC,114704.000,A,4700.5196,N,00735.4057,E,0.00,,050914,,,A*71"
"$GPRMC,114705.000,A,4700.5196,N,00735.4057,E,0.00,,050914,,,A*70"
"$GPRMC,114706.000,A,4700.5196,N,00735.4057,E,0.00,,050914,,,A*73"
"$GPRMC,114707.000,A,4700.5196,N,00735.4057,E,0.00,,050914,,,A*72"
"$GPRMC,114708.000,A,4700.5196,N,00735.4057,E,0.00,,050914,,,A*7D"
"$GPRMC,114709.000,A,4700.5196,N,00735.4057,E,0.00,,050914,,,A*7C"
"$GPRMC,114710.000,A,4700.5195,N,00735.4057,E,0.00,,050914,,,A*77"
"$GPRMC,114711.000,A,4700.5195,N,00735.4057,E,0.00,,050914,,,A*76"
"$GPRMC,114712.000,A,4700.5195,N,00735.4057,E,0.00,,050914,,,A*75"
"$GPRMC,114713.000,A,4700.5195,N,00735.4057,E,0.00,,050914,,,A*74"
"$GPRMC,114714.000,A,4700.5195,N,00735.4057,E,0.00,,050914,,,A*73"
"$GPRMC,114715.000,A,4700.5195,N,00735.4057,E,0.00,,050914,,,A*72"
"$GPRMC,114716.000,A,4700.5194,N,00735.4057,E,0.00,,050914,,,A*70"
"$GPRMC,114717.000,A,4700.5194,N,00735.4057,E,0.00,,050914,,,A*71"
"$GPRMC,114718.000,A,4700.5194,N,00735.4057,E,0.00,,050914,,,A*7E"
"$GPRMC,114719.000,A,4700.5194,N,00735.4057,E,0.00,,050914,,,A*7F"
"$GPRMC,114720.000,A,4700.5194,N,00735.4057,E,0.00,,050914,,,A*75"
"$GPRMC,114721.000,A,4700.5193,N,00735.4057,E,0.00,,050914,,,A*73"
"$GPRMC,114722.000,A,4700.5193,N,00735.4057,E,0.00,,050914,,,A*70"
"$GPRMC,114723.000,A,4700.5193,N,00735.4057,E,0.00,,050914,,,A*71"
"$GPRMC,114724.000,A,4700.5193,N,00735.4057,E,0.00,,050914,,,A*76"
"$GPRMC,114725.000,A,4700.5193,N,00735.4057,E,0.00,,050914,,,A*77"
"$GPRMC,114726.000,A,4700.5192,N,00735.4057,E,0.00,,050914,,,A*75"
"$GPRMC,114727.000,A,4700.5192,N,00735.4057,E,0.00,,050914,,,A*74"
"$GPRMC,114728.000,A,4700.5192,N,00735.4057,E,0.00,,050914,,,A*7B"
"$GPRMC,114729.000,A,4700.5192,N,00735.4057,E,0.00,,050914,,,A*7A"
"$GPRMC,114730.000,A,4700.5192,N,00735.4057,E,0.00,,050914,,,A*72"
"$GPRMC,114731.000,A,4700.5192,N,00735.4057,E,0.00,,050914,,,A*73"
"$GPRMC,114732.000,A,4700.5191,N,00735.4057,E,0.00,,050914,,,A*73"
"$GPRMC,114733.000,A,4700.5191,N,00735.4057,E,0.00,,050914,,,A*72"
"$GPRMC,114734.000,A,4700.5191,N,00735.4057,E,0.00,,050914,,,A*75"
"$GPRMC,114735.000,A,4700.5191,N,00735.4057,E,0.00,,050914,,,A*74"
"$GPRMC,114736.000,A,4700.5191,N,00735.4056,E,0.00,,050914,,,A*76"
"$GPRMC,114737.000,A,4700.5190,N,00735.4056,E,0.00,,050914,,,A*76"
"$GPRMC,114738.000,A,4700.5190,N,00735.4056,E,0.00,,050914,,,A*79"
"$GPRMC,114739.000,A,4700.5190,N,00735.4056,E,0.00,,050914,,,A*78"
"$GPRMC,114740.000,A,4700.5190,N,00735.4056,E,0.00,,050914,,,A*76"
"$GPRMC,114741.000,A,4700.5190,N,00735.4056,E,0.00,,050914,,,A*77"
"$GPRMC,114742.000,A,4700.5190,N,00735.4056,E,0.00,,050914,,,A*74"
"$GPRMC,114743.000,A,4700.5189,N,00735.4056,E,0.00,,050914,,,A*7D"
"$GPRMC,114744.000,A,4700.5189,N,00735.4056,E,0.00,,050914,,,A*7A"
"$GPRMC,114745.000,A,4700.5189,N,00735.4056,E,0.00,,050914,,,A*7B"
"$GPRMC,114746.000,A,4700.5189,N,00735.4056,E,0.00,,050914,,,A*78"
"$GPRMC,114747.000,A,4700.5189,N,00735.4056,E,0.00,,050914,,,A*79"
"$GPRMC,114748.000,A,4700.5189,N,00735.4056,E,0.00,,050914,,,A*76"
"$GPRMC,114749.000,A,4700.5189,N,00735.4056,E,0.00,,050914,,,A*77"
"$GPRMC,114750.000,A,4700.5188,N,00735.4056,E,0.00,,050914,,,A*7E"
"$GPRMC,114751.000,A,4700.5188,N,00735.4056,E,0.00,,050914,,,A*7F"
"$GPRMC,114752.000,A,4700.5188,N,00735.4056,E,0.00,,050914,,,A*7C"
"$GPRMC,114753.000,A,4700.5188,N,00735.4056,E,0.00,,050914,,,A*7D"
"$GPRMC,114754.000,A,4700.5188,N,00735.4056,E,0.00,,050914,,,A*7A"
"$GPRMC,114755.000,A,4700.5188,N,00735.4056,E,0.00,,050914,,,A*7B"
"$GPRMC,114756.000,A,4700.5188,N,00735.4056,E,0.00,,050914,,,A*78"
"$GPRMC,114757.000,A,4700.5187,N,00735.4055,E,0.00,,050914,,,A*75"
"$GPRMC,114758.000,A,4700.5187,N,00735.4055,E,0.00,,050914,,,A*7A"
"$GPRMC,114759.000,A,4700.5187,N,00735.4055,E,0.00,,050914,,,A*7B"
"$GPRMC,114800.000,A,4700.5187,N,00735.4055,E,0.00,,050914,,,A*78"
"$GPRMC,114801.000,A,4700.5187,N,00735.4055,E,0.00,,050914,,,A*79"
"$GPRMC,114802.000,A,4700.5187,N,00735.4055,E,0.00,,050914,,,A*7A"
"$GPRMC,114803.000,A,4700.5187,N,00735.4055,E,0.00,,050914,,,A*7B"
"$GPRMC,114804.000,A,4700.5186,N,00735.4055,E,0.00,,050914,,,A*7D"
"$GPRMC,114805.000,A,4700.5186,N,00735.4055,E,0.00,,050914,,,A*7C"
"$GPRMC,114806.000,A,4700.5186,N,00735.4055,E,0.00,,050914,,,A*7F"
"$GPRMC,114807.000,A,4700.5186,N,00735.4055,E,0.00,,050914,,,A*7E"
"$GPRMC,114808.000,A,4700.5186,N,00735.4055,E,0.00,,050914,,,A*71"
"$GPRMC,114809.000,A,4700.5186,N,00735.4055,E,0.00,,050914,,,A*70"
"$GPRMC,114810.000,A,4700.5186,N,00735.4055,E,0.00,,050914,,,A*78"
"$GPRMC,114811.000,A,4700.5185,N,00735.4055,E,0.00,,050914,,,A*7A"
"$GPRMC,114812.000,A,4700.5185,N,00735.4054,E,0.00,,050914,,,A*78"
"$GPRMC,114813.000,A,4700.5185,N,00735.4054,E,0.00,,050914,,,A*79"
"$GPRMC,114814.000,A,4700.5185,N,00735.4054,E,0.00,,050914,,,A*7E"
"$GPRMC,114815.000,A,4700.5185,N,00735.4054,E,0.00,,050914,,,A*7F"
"$GPRMC,114816.000,A,4700.5185,N,00735.4054,E,0.00,,050914,,,A*7C"
"$GPRMC,114817.000,A,4700.5185,N,00735.4054,E,0.00,,050914,,,A*7D"
"$GPRMC,114818.000,A,4700.5185,N,00735.4054,E,0.00,,050914,,,A*72"
"$GPRMC,114819.000,A,4700.5184,N,00735.4054,E,0.00,,050914,,,A*72"
"$GPRMC,114820.000,A,4700.5184,N,00735.4054,E,0.00,,050914,,,A*78"
"$GPRMC,114821.000,A,4700.5184,N,00735.4054,E,0.00,,050914,,,A*79"
"$GPRMC,114822.000,A,4700.5184,N,00735.4054,E,0.00,,050914,,,A*7A"
"$GPRMC,114823.000,A,4700.5184,N,00735.4054,E,0.00,,050914,,,A*7B"
"$GPRMC,114824.000,A,4700.5184,N,00735.4054,E,0.00,,050914,,,A*7C"
"$GPRMC,114825.000,A,4700.5183,N,00735.4054,E,0.00,,050914,,,A*7A"
"$GPRMC,114826.000,A,4700.5183,N,00735.4054,E,0.00,,050914,,,A*79"
"$GPRMC,114827.000,A,4700.5183,N,00735.4053,E,0.00,,050914,,,A*7F"
"$GPRMC,114828.000,A,4700.5183,N,00735.4053,E,0.00,,050914,,,A*70"
"$GPRMC,114829.000,A,4700.5183,N,00735.4053,E,0.00,,050914,,,A*71"
"$GPRMC,114830.000,A,4700.5183,N,00735.4053,E,0.00,,050914,,,A*79"
"$GPRMC,114831.000,A,4700.5182,N,00735.4053,E,0.00,,050914,,,A*79"
"$GPRMC,114832.000,A,4700.5182,N,00735.4053,E,0.00,,050914,,,A*7A"
"$GPRMC,114833.000,A,4700.5182,N,00735.4053,E,0.00,,050914,,,A*7B"
"$GPRMC,114834.000,A,4700.5182,N,00735.4052,E,0.00,,050914,,,A*7D"
"$GPRMC,114835.000,A,4700.5182,N,00735.4052,E,0.00,,050914,,,A*7C"
"$GPRMC,114836.000,A,4700.5181,N,00735.4052,E,0.00,,050914,,,A*7C"
"$GPRMC,114837.000,A,4700.5181,N,00735.4052,E,0.00,,050914,,,A*7D"
"$GPRMC,114838.000,A,4700.5181,N,00735.4052,E,0.00,,050914,,,A*72"
"$GPRMC,114839.000,A,4700.5181,N,00735.4051,E,0.00,,050914,,,A*70"
"$GPRMC,114840.000,A,4700.5181,N,00735.4051,E,0.00,,050914,,,A*7E"
"$GPRMC,114838.000,A,4700.5181,N,00735.4051,E,0.00,,050914,,,A*71"
"$GPRMC,114839.000,A,4700.5180,N,00735.4051,E,0.00,,050914,,,A*71"
"$GPRMC,114840.000,A,4700.5180,N,00735.4051,E,0.00,,050914,,,A*7F"
"$GPRMC,114841.000,A,4700.5180,N,00735.4051,E,0.00,,050914,,,A*7E"
"$GPRMC,114842.000,A,4700.5180,N,00735.4050,E,0.00,,050914,,,A*7C"
"$GPRMC,114843.000,A,4700.5180,N,00735.4050,E,0.00,,050914,,,A*7D"
"$GPRMC,114844.000,A,4700.5179,N,00735.4050,E,0.00,,050914,,,A*7C"
"$GPRMC,114845.000,A,4700.5179,N,00735.4050,E,0.00,,050914,,,A*7D"
"$GPRMC,114846.000,A,4700.5178,N,00735.4050,E,0.00,,050914,,,A*7F"
"$GPRMC,114847.000,A,4700.5178,N,00735.4050,E,0.00,,050914,,,A*7E"
"$GPRMC,114848.000,A,4700.5178,N,00735.4049,E,0.00,,050914,,,A*79"
"$GPRMC,114849.000,A,4700.5178,N,00735.4049,E,0.00,,050914,,,A*78"
"$GPRMC,114850.000,A,4700.5177,N,00735.4049,E,0.00,,050914,,,A*7F"
"$GPRMC,114851.000,A,4700.5177,N,00735.4049,E,0.00,,050914,,,A*7E"
"$GPRMC,114852.000,A,4700.5177,N,00735.4049,E,0.00,,050914,,,A*7D"
"$GPRMC,114853.000,A,4700.5177,N,00735.4049,E,0.00,,050914,,,A*7C"
"$GPRMC,114854.000,A,4700.5177,N,00735.4049,E,0.00,,050914,,,A*7B"
"$GPRMC,114855.000,A,4700.5176,N,00735.4048,E,0.00,,050914,,,A*7A"
"$GPRMC,114856.000,A,4700.5176,N,00735.4048,E,0.00,,050914,,,A*79"
"$GPRMC,114857.000,A,4700.5176,N,00735.4048,E,0.00,,050914,,,A*78"
"$GPRMC,114858.000,A,4700.5176,N,00735.4048,E,0.00,,050914,,,A*77"
"$GPRMC,114859.000,A,4700.5176,N,00735.4048,E,0.00,,050914,,,A*76"
"$GPRMC,114900.000,A,4700.5176,N,00735.4048,E,0.00,,050914,,,A*7B"
"$GPRMC,114901.000,A,4700.5175,N,00735.4047,E,0.00,,050914,,,A*76"
"$GPRMC,114902.000,A,4700.5175,N,00735.4047,E,0.00,,050914,,,A*75"
"$GPRMC,114903.000,A,4700.5175,N,00735.4047,E,0.00,,050914,,,A*74"
"$GPRMC,114904.000,A,4700.5174,N,00735.4047,E,0.00,,050914,,,A*72"
"$GPRMC,114905.000,A,4700.5174,N,00735.4046,E,0.00,,050914,,,A*72"
"$GPRMC,114906.000,A,4700.5174,N,00735.4046,E,0.00,,050914,,,A*71"
"$GPRMC,114907.000,A,4700.5174,N,00735.4046,E,0.00,,050914,,,A*70"
"$GPRMC,114908.000,A,4700.5173,N,00735.4046,E,0.00,,050914,,,A*78"
"$GPRMC,114909.000,A,4700.5173,N,00735.4045,E,0.00,,050914,,,A*7A"
"$GPRMC,114910.000,A,4700.5173,N,00735.4045,E,0.00,,050914,,,A*72"
"$GPRMC,114911.000,A,4700.5172,N,00735.4045,E,0.00,,050914,,,A*72"
"$GPRMC,114912.000,A,4700.5172,N,00735.4045,E,0.00,,050914,,,A*71"
"$GPRMC,114913.000,A,4700.5172,N,00735.4044,E,0.00,,050914,,,A*71"
"$GPRMC,114914.000,A,4700.5172,N,00735.4044,E,0.00,,050914,,,A*76"
"$GPRMC,114915.000,A,4700.5172,N,00735.4044,E,0.00,,050914,,,A*77"
"$GPRMC,114916.000,A,4700.5171,N,00735.4044,E,0.00,,050914,,,A*77"
"$GPRMC,114917.000,A,4700.5171,N,00735.4044,E,0.00,,050914,,,A*76"
"$GPRMC,114918.000,A,4700.5171,N,00735.4043,E,0.00,,050914,,,A*7E"
"$GPRMC,114919.000,A,4700.5171,N,00735.4043,E,0.00,,050914,,,A*7F"
"$GPRMC,114920.000,A,4700.5171,N,00735.4043,E,0.00,,050914,,,A*75"
"$GPRMC,114921.000,A,4700.5170,N,00735.4043,E,0.00,,050914,,,A*75"
"$GPRMC,114922.000,A,4700.5170,N,00735.4043,E,0.00,,050914,,,A*76"
"$GPRMC,114923.000,A,4700.5170,N,00735.4043,E,0.00,,050914,,,A*77"
"$GPRMC,114924.000,A,4700.5169,N,00735.4042,E,0.00,,050914,,,A*79"
"$GPRMC,114925.000,A,4700.5169,N,00735.4042,E,0.00,,050914,,,A*78"
"$GPRMC,114926.000,A,4700.5169,N,00735.4042,E,0.00,,050914,,,A*7B"
"$GPRMC,114927.000,A,4700.5169,N,00735.4042,E,0.00,,050914,,,A*7A"
"$GPRMC,114928.000,A,4700.5168,N,00735.4042,E,0.00,,050914,,,A*74"
"$GPRMC,114929.000,A,4700.5168,N,00735.4042,E,0.00,,050914,,,A*75"
"$GPRMC,114930.000,A,4700.5168,N,00735.4041,E,0.00,,050914,,,A*7E"
"$GPRMC,114931.000,A,4700.5168,N,00735.4041,E,0.00,,050914,,,A*7F"
"$GPRMC,114932.000,A,4700.5167,N,00735.4041,E,0.00,,050914,,,A*73"
"$GPRMC,114933.000,A,4700.5167,N,00735.4041,E,0.00,,050914,,,A*72"
"$GPRMC,114934.000,A,4700.5167,N,00735.4041,E,0.00,,050914,,,A*75"
"$GPRMC,114935.000,A,4700.5166,N,00735.4041,E,0.00,,050914,,,A*75"
"$GPRMC,114936.000,A,4700.5166,N,00735.4040,E,0.00,,050914,,,A*77"
"$GPRMC,114937.000,A,4700.5165,N,00735.4040,E,0.00,,050914,,,A*75"
"$GPRMC,114938.000,A,4700.5164,N,00735.4040,E,0.00,,050914,,,A*7B"
"$GPRMC,114939.000,A,4700.5164,N,00735.4039,E,0.00,,050914,,,A*74"
"$GPRMC,114940.000,A,4700.5164,N,00735.4039,E,0.00,,050914,,,A*7A"
"$GPRMC,114941.000,A,4700.5163,N,00735.4039,E,0.00,,050914,,,A*7C"
"$GPRMC,114942.000,A,4700.5163,N,00735.4039,E,0.00,,050914,,,A*7F"
"$GPRMC,114943.000,A,4700.5162,N,00735.4038,E,0.00,,050914,,,A*7E"
"$GPRMC,114944.000,A,4700.5161,N,00735.4038,E,0.00,,050914,,,A*7A"
"$GPRMC,114945.000,A,4700.5161,N,00735.4038,E,0.00,,050914,,,A*7B"
"$GPRMC,114946.000,A,4700.5161,N,00735.4038,E,0.00,,050914,,,A*78"
"$GPRMC,114947.000,A,4700.5160,N,00735.4037,E,0.00,,050914,,,A*77"
"$GPRMC,114948.000,A,4700.5159,N,00735.4037,E,0.00,,050914,,,A*72"
"$GPRMC,114949.000,A,4700.5159,N,00735.4037,E,0.00,,050914,,,A*73"
"$GPRMC,114950.000,A,4700.5158,N,00735.4036,E,0.00,,050914,,,A*7B"
"$GPRMC,114951.000,A,4700.5158,N,00735.4036,E,0.00,,050914,,,A*7A"
"$GPRMC,114952.000,A,4700.5157,N,00735.4036,E,0.00,,050914,,,A*76"
"$GPRMC,114953.000,A,4700.5157,N,00735.4035,E,0.00,,050914,,,A*74"
"$GPRMC,114954.000,A,4700.5156,N,00735.4035,E,0.00,,050914,,,A*72"
"$GPRMC,114955.000,A,4700.5156,N,00735.4035,E,0.00,,050914,,,A*73"
"$GPRMC,114956.000,A,4700.5155,N,00735.4035,E,0.00,,050914,,,A*73"
"$GPRMC,114957.000,A,4700.5154,N,00735.4034,E,0.00,,050914,,,A*72"
"$GPRMC,114958.000,A,4700.5154,N,00735.4034,E,0.00,,050914,,,A*7D"
"$GPRMC,114959.000,A,4700.5154,N,00735.4034,E,0.00,,050914,,,A*7C"
"$GPRMC,115000.000,A,4700.5153,N,00735.4034,E,0.00,,050914,,,A*7F"
"$GPRMC,115001.000,A,4700.5153,N,00735.4033,E,0.00,,050914,,,A*79"
"$GPRMC,115002.000,A,4700.5153,N,00735.4033,E,0.00,,050914,,,A*7A"
"$GPRMC,115003.000,A,4700.5152,N,00735.4033,E,0.00,,050914,,,A*7A"
"$GPRMC,115004.000,A,4700.5152,N,00735.4033,E,0.00,,050914,,,A*7D"
"$GPRMC,115005.000,A,4700.5151,N,00735.4032,E,0.00,,050914,,,A*7E"
"$GPRMC,115006.000,A,4700.5151,N,00735.4032,E,0.00,,050914,,,A*7D"
"$GPRMC,115007.000,A,4700.5150,N,00735.4032,E,0.00,,050914,,,A*7D"
"$GPRMC,115008.000,A,4700.5150,N,00735.4031,E,0.00,,050914,,,A*71"
"$GPRMC,115009.000,A,4700.5149,N,00735.4031,E,0.00,,050914,,,A*78"
"$GPRMC,115010.000,A,4700.5149,N,00735.4031,E,0.00,,050914,,,A*70"
"$GPRMC,115011.000,A,4700.5149,N,00735.4031,E,0.00,,050914,,,A*71"
"$GPRMC,115012.000,A,4700.5148,N,00735.4031,E,0.00,,050914,,,A*73"
"$GPRMC,115013.000,A,4700.5148,N,00735.4030,E,0.00,,050914,,,A*73"
"$GPRMC,115014.000,A,4700.5147,N,00735.4030,E,0.00,,050914,,,A*7B"
"$GPRMC,115015.000,A,4700.5147,N,00735.4030,E,0.00,,050914,,,A*7A"
"$GPRMC,115016.000,A,4700.5147,N,00735.4030,E,0.00,,050914,,,A*79"
"$GPRMC,115017.000,A,4700.5147,N,00735.4031,E,0.00,,050914,,,A*79"
"$GPRMC,115018.000,A,4700.5148,N,00735.4032,E,0.00,,050914,,,A*7A"
"$GPRMC,115019.000,A,4700.5148,N,00735.4032,E,0.00,,050914,,,A*7B"
"$GPRMC,115020.000,A,4700.5149,N,00735.4033,E,0.00,,050914,,,A*71"
"$GPRMC,115021.000,A,4700.5149,N,00735.4033,E,0.00,,050914,,,A*70"
"$GPRMC,115022.000,A,4700.5149,N,00735.4034,E,0.00,,050914,,,A*74"
"$GPRMC,115023.000,A,4700.5150,N,00735.4035,E,0.00,,050914,,,A*7C"
"$GPRMC,115024.000,A,4700.5150,N,00735.4036,E,0.00,,050914,,,A*78"
"$GPRMC,115025.000,A,4700.5151,N,00735.4036,E,0.00,,050914,,,A*78"
"$GPRMC,115026.000,A,4700.5151,N,00735.4037,E,0.00,,050914,,,A*7A"
"$GPRMC,115027.000,A,4700.5152,N,00735.4038,E,0.00,,050914,,,A*77"
"$GPRMC,115028.000,A,4700.5152,N,00735.4038,E,0.00,,050914,,,A*78"
"$GPRMC,115029.000,A,4700.5152,N,00735.4039,E,0.00,,050914,,,A*78"
"$GPRMC,115030.000,A,4700.5152,N,00735.4040,E,0.00,,050914,,,A*7E"
"$GPRMC,115031.000,A,4700.5153,N,00735.4040,E,0.00,,050914,,,A*7E"
"$GPRMC,115032.000,A,4700.5153,N,00735.4041,E,0.00,,050914,,,A*7C"
"$GPRMC,115033.000,A,4700.5154,N,00735.4042,E,0.00,,050914,,,A*79"
"$GPRMC,115034.000,A,4700.5154,N,00735.4042,E,0.00,,050914,,,A*7E"
"$GPRMC,115035.000,A,4700.5154,N,00735.4043,E,0.00,,050914,,,A*7E"
"$GPRMC,115036.000,A,4700.5154,N,00735.4043,E,0.00,,050914,,,A*7D"
"$GPRMC,115037.000,A,4700.5154,N,00735.4044,E,0.00,,050914,,,A*7B"
"$GPRMC,115038.000,A,4700.5155,N,00735.4045,E,0.00,,050914,,,A*74"
"$GPRMC,115039.000,A,4700.5155,N,00735.4045,E,0.00,,050914,,,A*75"
"$GPRMC,115040.000,A,4700.5155,N,00735.4046,E,0.00,,050914,,,A*78"
"$GPRMC,115041.000,A,4700.5156,N,00735.4046,E,0.00,,050914,,,A*7A"
"$GPRMC,115042.000,A,4700.5156,N,00735.4047,E,0.00,,050914,,,A*78"
"$GPRMC,115043.000,A,4700.5156,N,00735.4047,E,0.00,,050914,,,A*79"
"$GPRMC,115044.000,A,4700.5156,N,00735.4048,E,0.00,,050914,,,A*71"
"$GPRMC,115045.000,A,4700.5156,N,00735.4048,E,0.00,,050914,,,A*70"
"$GPRMC,115046.000,A,4700.5156,N,00735.4049,E,0.00,,050914,,,A*72"
"$GPRMC,115047.000,A,4700.5156,N,00735.4049,E,0.00,,050914,,,A*73"
"$GPRMC,115048.000,A,4700.5156,N,00735.4049,E,0.00,,050914,,,A*7C"
"$GPRMC,115049.000,A,4700.5157,N,00735.4050,E,0.00,,050914,,,A*74"
"$GPRMC,115050.000,A,4700.5157,N,00735.4050,E,0.00,,050914,,,A*7C"
"$GPRMC,115051.000,A,4700.5157,N,00735.4050,E,0.00,,050914,,,A*7D"
"$GPRMC,115052.000,A,4700.5157,N,00735.4051,E,0.00,,050914,,,A*7F"
"$GPRMC,115053.000,A,4700.5157,N,00735.4051,E,0.00,,050914,,,A*7E"
"$GPRMC,115054.000,A,4700.5157,N,00735.4051,E,0.00,,050914,,,A*79"
"$GPRMC,115055.000,A,4700.5157,N,00735.4052,E,0.00,,050914,,,A*7B"
"$GPRMC,115056.000,A,4700.5157,N,00735.4052,E,0.00,,050914,,,A*78"
"$GPRMC,115057.000,A,4700.5157,N,00735.4052,E,0.00,,050914,,,A*79"
"$GPRMC,115058.000,A,4700.5157,N,00735.4053,E,0.00,,050914,,,A*77"
"$GPRMC,115059.000,A,4700.5157,N,00735.4053,E,0.00,,050914,,,A*76"
"$GPRMC,115100.000,A,4700.5157,N,00735.4054,E,0.00,,050914,,,A*7C"
"$GPRMC,115101.000,A,4700.5157,N,00735.4054,E,0.00,,050914,,,A*7D"
"$GPRMC,115102.000,A,4700.5157,N,00735.4054,E,0.00,,050914,,,A*7E"
"$GPRMC,115103.000,A,4700.5158,N,00735.4055,E,0.00,,050914,,,A*71"
"$GPRMC,115104.000,A,4700.5158,N,00735.4055,E,0.00,,050914,,,A*76"
"$GPRMC,115105.000,A,4700.5159,N,00735.4055,E,0.00,,050914,,,A*76"
"$GPRMC,115106.000,A,4700.5159,N,00735.4056,E,0.00,,050914,,,A*76"
"$GPRMC,115107.000,A,4700.5159,N,00735.4056,E,0.00,,050914,,,A*77"
"$GPRMC,115108.000,A,4700.5160,N,00735.4056,E,0.00,,050914,,,A*72"
"$GPRMC,115109.000,A,4700.5160,N,00735.4057,E,0.00,,050914,,,A*72"
"$GPRMC,115110.000,A,4700.5160,N,00735.4057,E,0.00,,050914,,,A*7A"
"$GPRMC,115111.000,A,4700.5160,N,00735.4057,E,0.00,,050914,,,A*7B"
"$GPRMC,115112.000,A,4700.5161,N,00735.4058,E,0.00,,050914,,,A*76"
"$GPRMC,115113.000,A,4700.5161,N,00735.4058,E,0.00,,050914,,,A*77"
"$GPRMC,115114.000,A,4700.5161,N,00735.4058,E,0.00,,050914,,,A*70"
"$GPRMC,115115.000,A,4700.5162,N,00735.4058,E,0.00,,050914,,,A*72"
"$GPRMC,115116.000,A,4700.5162,N,00735.4059,E,0.00,,050914,,,A*70"
"$GPRMC,115117.000,A,4700.5162,N,00735.4059,E,0.00,,050914,,,A*71"
"$GPRMC,115118.000,A,4700.5162,N,00735.4059,E,0.00,,050914,,,A*7E"
"$GPRMC,115119.000,A,4700.5162,N,00735.4059,E,0.00,,050914,,,A*7F"
"$GPRMC,115120.000,A,4700.5162,N,00735.4059,E,0.00,,050914,,,A*75"
"$GPRMC,115121.000,A,4700.5162,N,00735.4059,E,0.00,,050914,,,A*74"
"$GPRMC,115122.000,A,4700.5162,N,00735.4059,E,0.00,,050914,,,A*77"
"$GPRMC,115123.000,A,4700.5162,N,00735.4060,E,0.00,,050914,,,A*7C"
"$GPRMC,115124.000,A,4700.5161,N,00735.4060,E,0.00,,050914,,,A*78"
"$GPRMC,115125.000,A,4700.5161,N,00735.4060,E,0.00,,050914,,,A*79"
"$GPRMC,115126.000,A,4700.5161,N,00735.4060,E,0.00,,050914,,,A*7A"
"$GPRMC,115127.000,A,4700.5160,N,00735.4060,E,0.00,,050914,,,A*7A"
"$GPRMC,115128.000,A,4700.5160,N,00735.4060,E,0.00,,050914,,,A*75"
"$GPRMC,115129.000,A,4700.5160,N,00735.4060,E,0.00,,050914,,,A*74"
"$GPRMC,115130.000,A,4700.5160,N,00735.4060,E,0.00,,050914,,,A*7C"
"$GPRMC,115131.000,A,4700.5159,N,00735.4060,E,0.00,,050914,,,A*77"
"$GPRMC,115132.000,A,4700.5159,N,00735.4060,E,0.00,,050914,,,A*74"
"$GPRMC,115133.000,A,4700.5159,N,00735.4060,E,0.00,,050914,,,A*75"
"$GPRMC,115134.000,A,4700.5158,N,00735.4060,E,0.00,,050914,,,A*73"
"$GPRMC,115135.000,A,4700.5158,N,00735.4060,E,0.00,,050914,,,A*72"
"$GPRMC,115136.000,A,4700.5158,N,00735.4060,E,0.00,,050914,,,A*71"
"$GPRMC,115137.000,A,4700.5158,N,00735.4060,E,0.00,,050914,,,A*70"
"$GPRMC,115138.000,A,4700.5157,N,00735.4061,E,0.00,,050914,,,A*71"
"$GPRMC,115139.000,A,4700.5157,N,00735.4061,E,0.00,,050914,,,A*70"
"$GPRMC,115140.000,A,4700.5157,N,00735.4061,E,0.00,,050914,,,A*7E"
"$GPRMC,115141.000,A,4700.5158,N,00735.4061,E,0.00,,050914,,,A*70"
"$GPRMC,115142.000,A,4700.5158,N,00735.4061,E,0.00,,050914,,,A*73"
"$GPRMC,115143.000,A,4700.5159,N,00735.4062,E,0.00,,050914,,,A*70"
"$GPRMC,115144.000,A,4700.5159,N,00735.4062,E,0.00,,050914,,,A*77"
"$GPRMC,115145.000,A,4700.5159,N,00735.4062,E,0.00,,050914,,,A*76"
"$GPRMC,115146.000,A,4700.5160,N,00735.4062,E,0.00,,050914,,,A*7F"
"$GPRMC,115147.000,A,4700.5160,N,00735.4063,E,0.00,,050914,,,A*7F"
"$GPRMC,115148.000,A,4700.5160,N,00735.4063,E,0.00,,050914,,,A*70"
"$GPRMC,115149.000,A,4700.5161,N,00735.4063,E,0.00,,050914,,,A*70"
"$GPRMC,115150.000,A,4700.5161,N,00735.4063,E,0.00,,050914,,,A*78"
"$GPRMC,115151.000,A,4700.5161,N,00735.4063,E,0.00,,050914,,,A*79"
"$GPRMC,115152.000,A,4700.5162,N,00735.4063,E,0.00,,050914,,,A*79"
"$GPRMC,115153.000,A,4700.5162,N,00735.4064,E,0.00,,050914,,,A*7F"
"$GPRMC,115154.000,A,4700.5162,N,00735.4064,E,0.00,,050914,,,A*78"
"$GPRMC,115155.000,A,4700.5163,N,00735.4064,E,0.00,,050914,,,A*78"
"$GPRMC,115156.000,A,4700.5163,N,00735.4064,E,0.00,,050914,,,A*7B"
"$GPRMC,115157.000,A,4700.5163,N,00735.4064,E,0.00,,050914,,,A*7A"
"$GPRMC,115158.000,A,4700.5163,N,00735.4065,E,0.00,,050914,,,A*74"
